{"rows":[{"adcode":"150100","people_count_2010":3218484,"lat":40.818311,"lng":111.670801,"name":"呼和浩特市","level":"city","parent":"内蒙古自治区"},{"adcode":"150700","people_count_2010":2607496,"lat":49.215333,"lng":119.758168,"name":"呼伦贝尔市","level":"city","parent":"内蒙古自治区"},{"adcode":"152500","people_count_2010":1028022,"lat":43.944018,"lng":116.090996,"name":"锡林郭勒盟","level":"city","parent":"内蒙古自治区"},{"adcode":"152200","people_count_2010":2193640,"lat":46.076268,"lng":122.070317,"name":"兴安盟","level":"city","parent":"内蒙古自治区"},{"adcode":"152900","people_count_2010":231334,"lat":38.844814,"lng":105.706422,"name":"阿拉善盟","level":"city","parent":"内蒙古自治区"},{"adcode":"150600","people_count_2010":1940653,"lat":39.817179,"lng":109.99029,"name":"鄂尔多斯市","level":"city","parent":"内蒙古自治区"},{"adcode":"150900","people_count_2010":2293073,"lat":41.034126,"lng":113.114543,"name":"乌兰察布市","level":"city","parent":"内蒙古自治区"},{"adcode":"150200","people_count_2010":2751850,"lat":40.658168,"lng":109.840405,"name":"包头市","level":"city","parent":"内蒙古自治区"},{"adcode":"150400","people_count_2010":4341245,"lat":42.275317,"lng":118.956806,"name":"赤峰市","level":"city","parent":"内蒙古自治区"},{"adcode":"150300","people_count_2010":532902,"lat":39.673734,"lng":106.825563,"name":"乌海市","level":"city","parent":"内蒙古自治区"},{"adcode":"150800","people_count_2010":1669915,"lat":40.757402,"lng":107.416959,"name":"巴彦淖尔市","level":"city","parent":"内蒙古自治区"},{"adcode":"150500","people_count_2010":3545175,"lat":43.617429,"lng":122.263119,"name":"通辽市","level":"city","parent":"内蒙古自治区"}],"total":12}