{"rows":[{"adcode":"231000","people_count_2010":2549232,"lat":44.582962,"lng":129.618602,"name":"牡丹江市","level":"city","parent":"黑龙江省"},{"adcode":"230500","people_count_2010":3232812,"lat":46.643442,"lng":131.157304,"name":"双鸭山市","level":"city","parent":"黑龙江省"},{"adcode":"230800","people_count_2010":2003656,"lat":46.809606,"lng":130.361634,"name":"佳木斯市","level":"city","parent":"黑龙江省"},{"adcode":"231100","people_count_2010":1673899,"lat":50.249585,"lng":127.499023,"name":"黑河市","level":"city","parent":"黑龙江省"},{"adcode":"230200","people_count_2010":5367003,"lat":47.342081,"lng":123.95792,"name":"齐齐哈尔市","level":"city","parent":"黑龙江省"},{"adcode":"232700","people_count_2010":665919,"lat":52.335262,"lng":124.711526,"name":"大兴安岭地区","level":"city","parent":"黑龙江省"},{"adcode":"230300","people_count_2010":1862165,"lat":45.300046,"lng":130.975966,"name":"鸡西市","level":"city","parent":"黑龙江省"},{"adcode":"230700","people_count_2010":1148126,"lat":47.724775,"lng":128.899396,"name":"伊春市","level":"city","parent":"黑龙江省"},{"adcode":"230400","people_count_2010":2162557,"lat":47.332085,"lng":130.277487,"name":"鹤岗市","level":"city","parent":"黑龙江省"},{"adcode":"230100","people_count_2010":10592114,"lat":45.756967,"lng":126.642464,"name":"哈尔滨市","level":"city","parent":"黑龙江省"},{"adcode":"230600","people_count_2010":3138370,"lat":46.590734,"lng":125.11272,"name":"大庆市","level":"city","parent":"黑龙江省"},{"adcode":"231200","people_count_2010":5418153,"lat":46.637393,"lng":126.99293,"name":"绥化市","level":"city","parent":"黑龙江省"},{"adcode":"230900","people_count_2010":920471,"lat":45.771266,"lng":131.015584,"name":"七台河市","level":"city","parent":"黑龙江省"}],"total":13}