{"rows":[{"adcode":"330700","people_count_2010":5327557,"lat":29.089524,"lng":119.649506,"name":"金华市","level":"city","parent":"浙江省"},{"adcode":"331000","people_count_2010":5973231,"lat":28.661378,"lng":121.428599,"name":"台州市","level":"city","parent":"浙江省"},{"adcode":"330600","people_count_2010":4923454,"lat":29.997117,"lng":120.582112,"name":"绍兴市","level":"city","parent":"浙江省"},{"adcode":"330900","people_count_2010":742456,"lat":30.016028,"lng":122.106863,"name":"舟山市","level":"city","parent":"浙江省"},{"adcode":"330100","people_count_2010":8402597,"lat":30.287459,"lng":120.153576,"name":"杭州市","level":"city","parent":"浙江省"},{"adcode":"330500","people_count_2010":2893542,"lat":30.867198,"lng":120.102398,"name":"湖州市","level":"city","parent":"浙江省"},{"adcode":"330800","people_count_2010":2122661,"lat":28.941708,"lng":118.87263,"name":"衢州市","level":"city","parent":"浙江省"},{"adcode":"330200","people_count_2010":7673449,"lat":29.868388,"lng":121.549792,"name":"宁波市","level":"city","parent":"浙江省"},{"adcode":"331100","people_count_2010":2116957,"lat":28.451993,"lng":119.921786,"name":"丽水市","level":"city","parent":"浙江省"},{"adcode":"330300","people_count_2010":9130194,"lat":28.000575,"lng":120.672111,"name":"温州市","level":"city","parent":"浙江省"},{"adcode":"330400","people_count_2010":4501657,"lat":30.762653,"lng":120.750865,"name":"嘉兴市","level":"city","parent":"浙江省"}],"total":11}