{"rows":[{"adcode":"411500","people_count_2010":6085177,"lat":32.123274,"lng":114.075031,"name":"信阳市","level":"city","parent":"河南省"},{"adcode":"411200","people_count_2010":2181802,"lat":34.777338,"lng":111.194099,"name":"三门峡市","level":"city","parent":"河南省"},{"adcode":"410300","people_count_2010":6727880,"lat":34.663041,"lng":112.434468,"name":"洛阳市","level":"city","parent":"河南省"},{"adcode":"410800","people_count_2010":4215858,"lat":35.23904,"lng":113.238266,"name":"焦作市","level":"city","parent":"河南省"},{"adcode":"410700","people_count_2010":5699625,"lat":35.302616,"lng":113.883991,"name":"新乡市","level":"city","parent":"河南省"},{"adcode":"411700","people_count_2010":7895662,"lat":32.980169,"lng":114.024736,"name":"驻马店市","level":"city","parent":"河南省"},{"adcode":"411300","people_count_2010":10313241,"lat":32.999082,"lng":112.540918,"name":"南阳市","level":"city","parent":"河南省"},{"adcode":"411100","people_count_2010":3294974,"lat":33.575855,"lng":114.026405,"name":"漯河市","level":"city","parent":"河南省"},{"adcode":"410900","people_count_2010":3552086,"lat":35.768234,"lng":115.041299,"name":"濮阳市","level":"city","parent":"河南省"},{"adcode":"410500","people_count_2010":5209899,"lat":36.103442,"lng":114.352482,"name":"安阳市","level":"city","parent":"河南省"},{"adcode":"411600","people_count_2010":8953534,"lat":33.620357,"lng":114.649653,"name":"周口市","level":"city","parent":"河南省"},{"adcode":"410100","people_count_2010":8638373,"lat":34.757975,"lng":113.665412,"name":"郑州市","level":"city","parent":"河南省"},{"adcode":"411400","people_count_2010":7322593,"lat":34.437054,"lng":115.650497,"name":"商丘市","level":"city","parent":"河南省"},{"adcode":"410200","people_count_2010":4765604,"lat":34.797049,"lng":114.341447,"name":"开封市","level":"city","parent":"河南省"},{"adcode":"410400","people_count_2010":5785938,"lat":33.735241,"lng":113.307718,"name":"平顶山市","level":"city","parent":"河南省"},{"adcode":"411000","people_count_2010":4275430,"lat":34.022956,"lng":113.826063,"name":"许昌市","level":"city","parent":"河南省"},{"adcode":"410600","people_count_2010":1569208,"lat":35.748236,"lng":114.295444,"name":"鹤壁市","level":"city","parent":"河南省"},{"adcode":"419001","people_count_2010":null,"lat":35.090378,"lng":112.590047,"name":"济源市","level":"city","parent":"河南省"}],"total":18}