{"rows":[{"adcode":"469022","people_count_2010":5939907,"lat":19.362916,"lng":110.102773,"name":"屯昌县","level":"city","parent":"海南省"},{"adcode":"469006","people_count_2010":545597,"lat":18.796216,"lng":110.388793,"name":"万宁市","level":"city","parent":"海南省"},{"adcode":"460200","people_count_2010":6600000,"lat":18.247872,"lng":109.508268,"name":"三亚市","level":"city","parent":"海南省"},{"adcode":"469024","people_count_2010":5939907,"lat":19.908293,"lng":109.687697,"name":"临高县","level":"city","parent":"海南省"},{"adcode":"469002","people_count_2010":483217,"lat":19.246011,"lng":110.466785,"name":"琼海市","level":"city","parent":"海南省"},{"adcode":"460300","people_count_2010":null,"lat":16.831039,"lng":112.34882,"name":"三沙市","level":"city","parent":"海南省"},{"adcode":"469005","people_count_2010":537426,"lat":19.612986,"lng":110.753975,"name":"文昌市","level":"city","parent":"海南省"},{"adcode":"469027","people_count_2010":467161,"lat":18.74758,"lng":109.175444,"name":"乐东黎族自治县","level":"city","parent":"海南省"},{"adcode":"469026","people_count_2010":256931,"lat":19.260968,"lng":109.053351,"name":"昌江黎族自治县","level":"city","parent":"海南省"},{"adcode":"460400","people_count_2010":null,"lat":19.517486,"lng":109.576782,"name":"儋州市","level":"city","parent":"海南省"},{"adcode":"469030","people_count_2010":167918,"lat":19.03557,"lng":109.839996,"name":"琼中黎族苗族自治县","level":"city","parent":"海南省"},{"adcode":"469023","people_count_2010":5939907,"lat":19.737095,"lng":110.007147,"name":"澄迈县","level":"city","parent":"海南省"},{"adcode":"469001","people_count_2010":104119,"lat":18.776921,"lng":109.516662,"name":"五指山市","level":"city","parent":"海南省"},{"adcode":"469021","people_count_2010":5939907,"lat":19.684966,"lng":110.349235,"name":"定安县","level":"city","parent":"海南省"},{"adcode":"469025","people_count_2010":284614,"lat":19.224584,"lng":109.452606,"name":"白沙黎族自治县","level":"city","parent":"海南省"},{"adcode":"469028","people_count_2010":427873,"lat":18.505006,"lng":110.037218,"name":"陵水黎族自治县","level":"city","parent":"海南省"},{"adcode":"469007","people_count_2010":408309,"lat":19.10198,"lng":108.653789,"name":"东方市","level":"city","parent":"海南省"},{"adcode":"460100","people_count_2010":2046170,"lat":20.031971,"lng":110.33119,"name":"海口市","level":"city","parent":"海南省"},{"adcode":"469029","people_count_2010":5939907,"lat":18.636371,"lng":109.70245,"name":"保亭黎族苗族自治县","level":"city","parent":"海南省"}],"total":19}